lap_id,invalid_lap,BPS_SPEED,BPS_THROTTLE,BPS_STEER,BPS_BRAKE,BPS_LAPDISTANCE,BPS_WORLDPOSITIONX,BPS_WORLDPOSITIONY,BPS_WORLDFORWARDDIRX,BPS_WORLDFORWARDDIRY,BPS_YAW,BPS_PITCH,BPS_ROLL,BPS_left_dist,BPS_dist_apex_1,BPS_dist_apex_2,BPS_angle_to_apex1,BPS_angle_to_apex2,BPS_proj_from_ref,BPS_ext_LAPDISTANCE,BPS_ext_TIMETOINMS,BPE_SPEED,BPE_THROTTLE,BPE_STEER,BPE_BRAKE,BPE_LAPDISTANCE,BPE_WORLDPOSITIONX,BPE_WORLDPOSITIONY,BPE_WORLDFORWARDDIRX,BPE_WORLDFORWARDDIRY,BPE_YAW,BPE_PITCH,BPE_ROLL,BPE_left_dist,BPE_dist_apex_1,BPE_dist_apex_2,BPE_angle_to_apex1,BPE_angle_to_apex2,BPE_proj_from_ref,BPE_ext_LAPDISTANCE,BPE_ext_TIMETOINMS,THS_SPEED,THS_THROTTLE,THS_STEER,THS_BRAKE,THS_LAPDISTANCE,THS_WORLDPOSITIONX,THS_WORLDPOSITIONY,THS_WORLDFORWARDDIRX,THS_WORLDFORWARDDIRY,THS_YAW,THS_PITCH,THS_ROLL,THS_left_dist,THS_dist_apex_1,THS_dist_apex_2,THS_angle_to_apex1,THS_angle_to_apex2,THS_proj_from_ref,THS_ext_LAPDISTANCE,THS_ext_TIMETOINMS,THE_SPEED,THE_THROTTLE,THE_STEER,THE_BRAKE,THE_LAPDISTANCE,THE_WORLDPOSITIONX,THE_WORLDPOSITIONY,THE_WORLDFORWARDDIRX,THE_WORLDFORWARDDIRY,THE_YAW,THE_PITCH,THE_ROLL,THE_left_dist,THE_dist_apex_1,THE_dist_apex_2,THE_angle_to_apex1,THE_angle_to_apex2,THE_proj_from_ref,THE_ext_LAPDISTANCE,THE_ext_TIMETOINMS,STS_SPEED,STS_THROTTLE,STS_STEER,STS_BRAKE,STS_LAPDISTANCE,STS_WORLDPOSITIONX,STS_WORLDPOSITIONY,STS_WORLDFORWARDDIRX,STS_WORLDFORWARDDIRY,STS_YAW,STS_PITCH,STS_ROLL,STS_left_dist,STS_dist_apex_1,STS_dist_apex_2,STS_angle_to_apex1,STS_angle_to_apex2,STS_proj_from_ref,STS_ext_LAPDISTANCE,STS_ext_TIMETOINMS,STM_SPEED,STM_THROTTLE,STM_STEER,STM_BRAKE,STM_LAPDISTANCE,STM_WORLDPOSITIONX,STM_WORLDPOSITIONY,STM_WORLDFORWARDDIRX,STM_WORLDFORWARDDIRY,STM_YAW,STM_PITCH,STM_ROLL,STM_left_dist,STM_dist_apex_1,STM_dist_apex_2,STM_angle_to_apex1,STM_angle_to_apex2,STM_proj_from_ref,STE_SPEED,STE_THROTTLE,STE_STEER,STE_BRAKE,STE_LAPDISTANCE,STE_WORLDPOSITIONX,STE_WORLDPOSITIONY,STE_WORLDFORWARDDIRX,STE_WORLDFORWARDDIRY,STE_YAW,STE_PITCH,STE_ROLL,STE_left_dist,STE_dist_apex_1,STE_dist_apex_2,STE_angle_to_apex1,STE_angle_to_apex2,STE_proj_from_ref,STE_ext_LAPDISTANCE,STE_ext_TIMETOINMS,APX1_SPEED,APX1_THROTTLE,APX1_STEER,APX1_BRAKE,APX1_LAPDISTANCE,APX1_WORLDPOSITIONX,APX1_WORLDPOSITIONY,APX1_WORLDFORWARDDIRX,APX1_WORLDFORWARDDIRY,APX1_YAW,APX1_PITCH,APX1_ROLL,APX1_left_dist,APX1_dist_apex_1,APX1_dist_apex_2,APX1_angle_to_apex1,APX1_angle_to_apex2,APX1_proj_from_ref,APX2_SPEED,APX2_THROTTLE,APX2_STEER,APX2_BRAKE,APX2_LAPDISTANCE,APX2_WORLDPOSITIONX,APX2_WORLDPOSITIONY,APX2_WORLDFORWARDDIRX,APX2_WORLDFORWARDDIRY,APX2_YAW,APX2_PITCH,APX2_ROLL,APX2_left_dist,APX2_dist_apex_1,APX2_dist_apex_2,APX2_angle_to_apex1,APX2_angle_to_apex2,APX2_proj_from_ref,Target_CURRENTLAPTIMEINMS
10021698834789871149_1,1,316.0,1.0,0.0745678891392995,0.0,223.0,274.07198656578555,313.4587790564186,-23579.0,-110.0,-2.338366023907105,0.0033428472217017,-0.0333794336383235,1.2451917447502867,158.65420400172243,242.75886935407925,39.50541139779963,22.73387834774326,0.5431326161185481,246.0,265.0,135.0,0.0,0.0299888652623295,0.962789821387864,328.0,347.8353717430048,238.72439191270692,-22293.0,-46.0,-2.393376878936028,0.0014194947309413,0.0077673864048649,4.376512039569003,54.74996465922122,150.21294248867264,30.31732802760967,7.954590284899528,2.6597296015381806,343.0,440.0,316.0,0.9613105658146875,0.0265627833714987,0.0004473708039347,225.0,275.512633620481,312.0773942907054,-23445.0,-97.0,-2.344252274177811,0.002972885567862,-0.0319189280956484,1.2500555655769665,156.67100242469405,240.92565948075088,39.45390540760728,22.57711717707219,0.5240250206565553,241.0,183.0,115.0,0.1671958534445707,0.2184154879867519,0.0780363001692814,342.0,356.7777133258812,227.82786275150565,-18178.0,-295.0,-2.5534252132288136,0.0090212964911766,0.0102890168496802,5.94656918147305,40.88378104762249,138.36255932172492,26.43487677572968,4.109002856496366,3.1909914920568943,501.0,4231.0,128.0,0.7274410654524485,-0.0086737726174671,0.0,355.0,363.2606804044928,215.8522663368512,-13456.0,-403.0,-2.7183940968084976,0.0123105065149065,0.0208348312371432,10.061396856165622,27.26952877342167,125.97989572466604,25.117733824788235,0.8638180072564204,4.684165092694659,403.0,1091.0,116.0,0.5605611556789001,-0.0039226841159462,0.0,429.0,378.3827972607831,148.20286272798904,9327.0,-468.0,2.8528991164747106,0.0142894133477006,-0.0027755480545899,5.066070815914166,43.40736776859392,58.96548656448621,6.587885364710296,173.64758614755635,5.116915813116224,133.36485975311842,1.0,4.232725281383409e-16,0.0,508.3648597531184,374.2068997606508,78.22331467433605,-12823.945414324317,-58.71626222193419,-2.7394550356658,0.0018135256017828,-0.0164714740475034,0.7941551752067223,113.30402351582524,12.904893093342158,179.0479386611578,-156.12360236095446,2.178581668354464,473.0,-951.1214938279608,144.0,0.4495430567448676,0.5421569760614793,0.0,387,375.59635078694174,191.72921795824288,-13234.0,214.0,-2.7257566803780064,-0.0065405146027589,-0.0358809328196692,16.40406068222603,0.2118630546845159,101.94740810442532,-6.218332406417582,-2.822832698456221,0.9074862903785555,124.0,0.7782038167958844,-0.1543562151510493,0.0,495,370.3316223397738,90.4378582993874,-7623.0,-86.0,-2.9067915981143737,0.0025969889377951,-0.01570555666556,1.188303406018972,101.2167861968087,1.4684226481825118,176.3870231845594,-73.29787601457159,1.243211141720968,15377
10021698834789871149_10,1,324.0,0.9708021507246698,0.0004642888884601,0.0,273.0,310.09690063001784,278.84617246794306,-23824.0,76.0,-2.3275659986889967,-0.0023476334615524,-0.0187440301519444,1.591037943333361,109.14559905171362,197.79840858123785,37.04331735787996,17.48666668270122,0.1061021804673779,308.0,410.0,240.0,0.0,0.135475147761545,0.9992847202240296,330.0,350.6312977412961,238.735837981386,-20818.0,184.0,-2.4531006139685525,-0.0056532931355935,-0.0094790403247384,2.4130049559287223,53.39820839043888,149.85723874533988,28.348241563076627,7.520147551646831,0.6263412578937124,360.0,504.0,324.0,0.8999295692285039,0.0019876913769351,0.0157485927252105,274.0,310.8237891939684,278.15883833149314,-23822.0,75.0,-2.327635141083113,-0.0023139465123311,-0.0188005029394655,1.5905759905863086,108.15975868984891,196.92658575340192,36.951258911027416,17.341842322228068,0.1063085544383083,283.0,100.0,204.0,0.0559741098288171,0.2278192436751166,0.0522820233285168,358.0,366.6973057041637,215.0735074166106,-12947.0,-545.0,-2.7352762446562218,0.0166222631672529,0.0049697570068095,8.229548534120035,25.170211038180224,125.0934338057422,18.230351598816583,-1.3877436363384232,2.0772517560661234,415.0,945.0,297.0,0.0,0.0080052556692919,0.9804207920017888,298.0,328.2049351205485,261.59244879311314,-23482.0,49.0,-2.3426007795693065,-0.0015180405587126,-0.0198751019091185,1.6029637109342183,84.57977061210144,176.35900711971783,34.175678554386884,13.470882357003864,0.0296912936852653,399.0,1478.0,185.0,1.0,-2.745199900733297e-16,0.0,427.2228199203282,373.6089025333493,154.2198781640459,7847.7061147416625,-268.5704980082055,2.899699069641375,0.0082137860076029,-0.0090051856395097,1.428811244904068,37.35069959901815,64.39012610382098,-1.0488258284776724,177.7930696319178,0.6978822442080892,235.0,1.0,2.3895815881580523e-16,0.0,581.3958451497244,409.5175808299588,15.863695310480455,-24645.958451497245,97.79169029944887,-2.2902621262773213,-0.0030146665386506,-0.0173672427769274,8.591477500240835,178.905873372588,84.51963788068392,-168.83459661112107,-151.07377208011806,0.396529680593307,524.0,-905.9376772458664,194.0,0.0,0.3376110789288053,0.0,387,374.6072829849549,191.54695301324548,-4963.0,212.0,-2.9895021479778414,-0.0064906156266327,0.0046261834577685,17.396746994784365,0.9631227450365936,101.705531847415,90.78281831944253,-0.7539936535722174,1.9131046500597733,218.0,1.0,-0.0875999316406752,0.0,495,369.8181526051562,90.31372317368576,-5417.0,148.0,-2.9755119147430875,-0.0045476550647697,-0.0104393309280368,1.716471673076792,101.36859378498092,0.94193273632099,178.31219241504436,-68.98018083979021,0.7158536416916799,12146
10021698834789871149_11,1,322.0,1.0,-0.0023750492041555,0.0,258.0,298.743940464808,288.6880046974189,-23746.0,57.0,-2.3309748235118835,-0.0017612322372463,-0.0224236433167715,2.2249752837752865,123.87113827519256,210.7202082471424,38.46896930954389,19.59317779482644,0.5407185920352389,285.0,312.0,254.0,0.0,0.0061858724594615,0.9998620422192792,304.0,332.1339793285178,257.02458131246726,-23559.0,6.0,-2.339267167299153,-0.0002099641874515,-0.0193259240278984,2.184336234986729,78.59814930936788,171.0296988825658,33.562506427346335,12.438570124114658,0.5754240208983539,335.0,502.0,321.0,0.8412797130111208,-0.0010750857248892,0.1364026833553172,264.0,303.0980622456336,284.55654089696327,-23767.0,67.0,-2.330090305984124,-0.0020620108274889,-0.0208755757035541,2.24199400523071,117.93288675355517,205.3925306195104,38.07845854322913,18.855753330051137,0.5532262653821716,273.0,102.0,199.0,0.0835255573866731,0.1140366940427634,0.0712663254116551,333.0,352.6283310712394,236.48569423869503,-21409.0,56.0,-2.429479928339942,-0.0017384906946602,-0.0010276116692108,2.627998266923888,50.48092475374384,147.38996921926324,27.180202011141493,6.49990592889231,0.6947779079909924,352.0,351.0,248.0,0.0,0.0097958392916278,0.9972132528294398,307.0,334.3009136860597,254.9447846993388,-23508.0,44.0,-2.341476503563993,-0.0013894089107406,-0.017911808292626,2.184564659765257,75.6701238925531,168.5406645840984,33.15797901132453,11.963919478747297,0.5855821645267422,388.0,1358.0,191.56718996815573,1.0,-1.0234868508263162e-15,0.0,421.5671899681557,374.7674531882217,159.57353978200874,7997.095922134466,-219.83594984077865,2.895023832675139,0.006714427292146,-0.0059997417764681,2.361755517886478,31.955628046930293,69.81801685070717,0.1376609274006266,176.77892294075136,0.4850098183004152,248.0,1.0,0.0003807630708759,0.0,606.0,427.9981021365604,-0.4477502778843716,-25472.0,-84.0,-2.2511069409482114,0.0025734428886894,-0.0201964375336427,8.826213499941355,198.9973344190651,108.02701615959624,-164.91340109569217,-147.04186846521287,1.1393342407647498,457.0,-2313.0,196.0,1.0,0.3235581245737255,0.0,388,375.2683290647111,191.2102383480432,-3686.0,69.0,-3.028856876301316,-0.0021167806409439,-0.0276024521100071,16.728138120957126,0.4316701413315149,101.40851424708023,136.73793332996777,-2.51106789546659,1.3174206020969754,220.0,1.0,-0.1148397242534841,0.0,495,368.8317069155408,90.07389685770416,-7131.0,98.0,-2.922203651432956,-0.003018637448919,-0.011372634426924,2.731519537639037,101.668645831658,0.1229726637552748,176.9871774985632,53.85146674513286,0.2975115266865101,12220
10021698834789871149_12,0,322.0,0.0251772476538367,0.0060108406662323,0.0,269.0,307.1659075662364,281.569461285135,-23818.0,41.0,-2.3277792958591297,-0.0012962303472601,-0.0208755556315831,1.6236679302490444,113.08494789030269,201.2800576590819,37.31964289527324,17.968517964753563,0.0706943980030695,292.0,263.0,291.0,0.0,0.01607776957742,0.8927510401846481,296.0,326.72750315772566,262.9422736329783,-23311.0,40.0,-2.3500502741995883,-0.0012534260749816,-0.0225536923631519,1.648611508254021,86.52672138847554,178.01707993635364,34.464418999877374,13.81198493362489,0.0076969804574625,364.0,1055.0,324.0,0.9363745162239322,0.0050949873109408,0.0,257.0,298.4087264816482,289.782367418958,-23886.0,48.0,-2.324806816237313,-0.001502015064289,-0.0237571236108998,1.6591458893718591,124.93819074841382,211.8637400551914,38.25590061117466,19.55768501060182,0.0245631682969498,270.0,146.0,191.0,0.0436743200411024,0.2792629486641044,0.0,364.0,369.1571600572119,209.010830681279,-13383.0,-443.0,-2.7207491007990807,0.0135401304600373,0.0042732289960057,10.849496219834077,18.63031552911416,119.01104747518043,18.23800786114472,-2.005257517981919,2.518717916471125,371.0,144.0,283.0,0.0,0.0065158694494253,0.8749839351009449,301.0,330.3021932248436,259.44593207640025,-23195.0,42.0,-2.3550734434893394,-0.001298125659746,-0.0217717646660857,1.7032994441191596,81.62868632744733,173.79307049908195,33.78399478391496,12.945744790168774,0.0832148316632006,373.0,1176.0,182.0,1.0,-1.2628786905111156e-15,0.0,427.1463756179923,374.3620899442065,154.0307894178791,9383.9317133729,-439.9028830339,2.8510979688530966,0.013436109829094,-0.0157942555690208,0.6570602054226082,37.50773017430173,64.26081558105544,0.8393240304974469,177.83502779909938,0.0770424165287992,239.8670593950892,1.0,3.621235256101585e-17,0.0,592.8670593950892,417.804259199991,7.80515769185534,-24981.069415765625,45.335296975446,-2.274604819097624,-0.0014116516698502,-0.0222869345966762,9.155576009248104,188.50609560028695,95.62790639738998,-166.94924638764252,-149.1598972106678,0.5583160988456668,470.0,-1952.005890926339,186.0,1.0,0.3789697282668682,0.0,387,375.1210997906391,191.6316229769024,-4733.0,178.0,-2.9966520661374414,-0.0054619172375547,-0.0267616690076871,16.88261272680997,0.4628124165259679,101.82002016075664,78.06974547738308,-1.3322019234295837,1.3923638526097497,213.0,1.0,-0.1000525575724376,0.0,495,369.659936348496,90.27433051334064,-7098.0,89.0,-2.9232119947482063,-0.002735480381425,-0.0095570240442635,1.8794793534430048,101.41702003030716,0.7797847801832181,177.3775826351321,-68.68399497373328,0.5531550315157522,12219
10021698834789871149_13,1,324.0,1.0,0.021113915034057,0.0,268.0,306.3975404889396,282.2154475865739,-23831.0,79.0,-2.327197466003761,-0.0024352622835823,-0.023471821706449,1.681062573008203,114.0643448218304,202.13136021758064,37.5220139493677,18.210929199252284,0.0121439566704641,287.0,212.0,210.0,0.0,0.1415974880967821,0.966016723996117,344.0,359.41248721168154,227.666987827846,-19989.0,-62.0,-2.485451187406268,0.0018912326721918,0.0113920224830508,4.2302723681441545,39.594724945461806,137.99558901380908,23.906086670391957,3.777097598244444,1.2198787006672325,355.0,198.0,325.0,0.9640327411539414,0.0206437695926139,0.0003559605140322,270.0,307.85881533507245,280.8483289038846,-23769.0,80.0,-2.329986681162692,-0.0024765078171726,-0.0235032763100103,1.6726194388972704,112.09163006730836,200.38157161221932,37.35478669815925,17.937436521706477,0.022845071047555,283.0,145.0,202.0,0.0999946206301535,0.2040001313932894,0.3243314531386405,350.0,363.0686161376262,222.81201232391444,-18319.0,-288.0,-2.5482193025583584,0.0087764087547323,0.0113829770270555,5.184797510601863,33.69773314006569,132.94128944127817,20.87573850403923,1.6262964790545262,1.1163338586261546,358.0,147.0,250.0,0.0,0.0060466112248406,1.0,319.0,342.72275847873755,246.3880287402124,-22685.0,167.0,-2.3768745007745595,-0.0051230054067948,-0.0066996279850401,2.472692592319469,63.94960195693482,158.56870763616408,31.32855565396117,9.934922578024748,0.8882166235481838,403.0,1389.0,187.0,1.0,-8.534839501805891e-16,0.0,440.2725281564591,375.0093718052049,140.42988320919113,11168.21120034586,-349.3779727349456,2.7936999251678403,0.0106520379427635,-0.0188705075762005,3.8746682819349663,51.09229350127814,50.79503220709058,1.1662303659930509,174.92069906135563,3.400776995421584,181.3721129311091,1.0,-5.117434254131581e-17,0.0,537.3721129311091,382.0932883249756,50.62673603939837,-18940.536356902077,-73.97604741118198,-2.525273237134827,0.0022412820831762,-0.0215820224960331,5.917521662354218,141.04341132162742,41.51555744122217,-177.57327573845225,-161.73994678742457,0.3425601332540502,462.0,-1535.0701456910729,195.0,1.0,0.5891931707208806,0.0,387,377.3545711614975,191.94015284754596,-6368.0,159.0,-2.9459858163730925,-0.0048872521780069,0.0006883577691285,14.637605335808312,1.8335931804641024,102.28767355764896,-75.29104673064337,-3.294022773250447,0.8612581070705906,165.0,1.0,-0.0666465826395179,0.0,495,366.80328097303374,89.58003986262476,-10225.0,-224.0,-2.824223742765539,0.0068219297072466,-0.0140980308218037,4.818916217161321,102.3152332567695,2.16778696754192,173.8296916261277,99.91541923696995,2.381416822799898,12881
10021698834789871149_2,1,322.0,1.0,0.0165078461911608,0.0,269.0,307.1538589751351,281.5582700047952,-24074.0,66.0,-2.316364382919635,-0.0020369427822542,-0.0201811494728091,1.640076503165223,113.08332545397931,201.27310403318677,37.38638451972407,18.031210458541818,0.054284690139521,300.0,359.0,207.0,0.0,-0.1241912920568482,0.9998617032344108,350.0,360.8398229346675,220.52772421043247,-15941.0,-418.0,-2.633490987387016,0.0127398087662958,0.027582198124416,8.376207366282522,32.53435409982779,130.7782006012591,25.41870066203868,2.0446374731685646,4.242412818635557,372.0,447.0,322.0,0.8943412976425527,0.0608071524498579,0.0706035405106732,274.0,310.82215393784776,278.1564332617816,-23871.0,74.0,-2.3254645183071845,-0.0022869012541841,-0.0249548912230625,1.5934468852355474,108.15881106908404,196.9247702849442,36.94994500509499,17.339732917337678,0.1034376078531653,287.0,147.0,177.0,0.0541851634339258,0.0704435512198166,0.1021456661262674,366.0,368.85532175796016,205.8345789485708,-14195.0,-444.0,-2.693494078342315,0.0135567278402288,0.0140488903867415,13.321169350295872,15.81210626472281,115.83460302099935,23.337232222592505,-1.7546103381297375,3.988522944238397,533.0,3351.0,185.0,0.0,-0.0030535015285418,0.6866425641332567,360.0,365.95405571132005,211.45976614928708,-15122.0,-418.0,-2.6618415320426907,0.0127713129926742,0.0197905278581103,11.33879725097169,22.13821445337337,121.49621820225036,24.161188440501743,-0.1798072465171667,4.402668011576066,396.0,550.0,151.0,0.5802696729265963,-2.827599265842196e-16,0.0,433.1524689761129,375.3656937603519,146.10413589916217,9548.242567201953,-433.2555584299676,2.8458333393561888,0.013212481393041,-0.0062416225588855,2.7962693226653466,45.41537338869893,56.47206097323314,2.341100868372785,176.0547597959239,2.575792165910038,183.5714979793113,0.9936827421188354,2.175343238874916e-15,0.0,520.5714979793113,375.9351600691484,66.21401770564079,-12896.013118089832,22.144939379338663,-2.7370770761028056,-0.0006941113984359,-0.0195499363199068,3.754756607779599,125.30563656621614,24.796106943160837,-179.7354070622838,-163.4938333289645,0.1834232048500496,452.0,-1381.8584616069147,174.0,0.4641151920581918,0.5717574735744086,0.0,388,374.9507446832778,191.20464495693136,-8179.0,249.0,-2.8892675435367248,-0.0076191297182054,-0.0058882270606776,17.044947677909242,0.6944755146089404,101.38357622119942,118.65766141726704,-1.6607949958839563,1.631683376279403,173.0,0.8842602968215942,-0.1386311270947368,0.0,495,369.68349841992335,90.27927786128176,-4626.0,82.0,-2.999946882339071,-0.0025223874364046,-0.0164858140565726,1.8554063360872444,101.410710674845,0.8035894428307848,177.68784271238346,-68.64768582106849,0.5772212708854765,13087
10021698834789871149_3,1,324.0,1.0,-0.0049994435103018,0.0,262.0,301.7103688306606,285.9997554757557,-23952.0,69.0,-2.321816517617416,-0.0021261464324822,-0.0208669677021496,2.1444578214890395,119.9243856425389,207.206136398269,38.18130972085636,19.09485627179555,0.4574415186582657,313.0,611.0,177.0,0.0,0.2777745559210483,0.9905847155364456,360.0,366.8546240415796,212.37849066667496,-12365.0,-474.0,-2.754543043752132,0.0144634084843273,0.0030057057421931,10.052310026248769,22.60699292187512,122.39608720552404,20.480526732376667,-1.223735060813009,3.1875947234859408,383.0,439.0,324.0,0.9730704394518824,-0.0075582263747774,0.0151382666826893,267.0,305.3703808630733,282.58945615496424,-23982.0,74.0,-2.3205172352088117,-0.0022735531209893,-0.0193395614636115,2.126294965761105,114.9861492147764,202.80661677296445,37.80282080687902,18.441051836796944,0.4217805697309113,281.0,157.0,159.0,0.0374821664742853,0.1512997038209969,0.3674709821941881,371.0,371.1427071142776,201.0030675417016,-8054.0,-584.0,-2.893213303224277,0.0178118521867976,0.0138966253645687,15.117906883037648,10.466539993308482,111.02511912374216,20.87652169528904,-5.289258709078764,3.3056798165313026,432.0,1184.0,245.0,0.0,0.0067637947698434,1.0,320.0,342.8983214343036,245.12976994779373,-21928.0,133.0,-2.4084577198933674,-0.0040807368716707,-0.0041108561974262,3.2506737174442475,62.78179062989082,157.29874065930454,31.706635735496963,9.873327321114536,1.6620880608998387,354.0,582.0,154.0,0.7432821989059448,1.1483869410966465e-15,0.0,416.2230530450174,374.14115927467583,165.49847906556798,6347.487866373241,-91.34579567526134,2.946628349263903,0.0028086938140672,0.0039471015800564,5.400750146010022,26.05975086669368,75.67811869813303,-2.317775763920927,176.8755797059349,2.0735884942842198,228.0,1.0,-5.377642775528102e-17,0.0,594.1137618615096,417.5881486827302,5.638310511724845,-26114.627566627565,15.976143246413583,-2.2192811562917543,-0.000514974343334,-0.0059380534795696,10.939498793991406,190.5707078315776,97.38851810630278,-167.2274375233403,-149.98964951906103,1.1763175698456438,568.0,-426.70642792264334,156.0,0.4178626821698366,0.1779167072028698,0.0,388,373.43568525225686,190.93144472027487,-4866.0,412.0,-2.9925331900217613,-0.0126111503902462,0.0221907492550531,18.44069540422389,2.213711961653244,101.03196391694225,110.23133307048208,2.283594575598766,3.1710313297980277,207.0,1.0,-0.0677363138495983,0.0,495,369.05243989610176,90.1249219401556,-3374.0,185.0,-3.038421236719449,-0.0056592082120986,-0.019108157061687,2.504968402053656,101.60333486315174,0.1749200368444043,179.46056188103083,-41.28666416327686,0.0712240725643856,12729
10021698834789871149_4,0,322.0,1.0,0.0097690910734649,0.0,268.0,306.2019026571444,282.01074119171216,-24093.0,69.0,-2.315488746069244,-0.0021276253577235,-0.0187127459429614,1.9642153257734796,114.02056021996955,201.9973735701666,37.636717708299166,18.25581562695242,0.2710107942819806,304.0,420.0,207.0,0.0,0.498705025364921,0.9950960518488454,344.0,360.3006099693051,228.58014076689727,-19438.0,-25.0,-2.5064201766839127,0.0007421565072255,0.0022515267203738,2.9564604911703007,40.08344330086,138.8485570226602,22.3182350471443,3.489518970986532,0.0412423172076082,365.0,410.0,323.0,0.9635359787817364,0.0241860887617175,0.0205678106332912,270.0,307.66865874789244,280.64965504522485,-24078.0,69.0,-2.3161437322419207,-0.0021451579028212,-0.019570683190898,1.9476230902921956,112.04849759200712,200.2504504386205,37.46499575390684,17.977930577411495,0.2521605822771829,287.0,191.0,178.0,0.0238095687646604,0.3708752922936531,0.1305729497125081,362.0,370.4481042374012,213.1878622251492,-14313.0,-509.0,-2.689453981346466,0.0155454609679225,0.0082597785859068,6.963456706712763,22.265969692232662,123.19721604029024,11.262284155279184,-2.7427467568222186,0.3926941266317316,399.0,665.0,247.0,0.0,-0.0060635028658742,1.0,321.0,344.48079564580746,245.3258328697217,-23175.0,178.0,-2.355931284450375,-0.0054640759929671,-0.0054086450086744,2.0045188189954084,62.14268976192541,157.23828398397697,30.45907818584177,9.385360705494204,0.4099377215811867,379.0,1061.0,160.0,1.0,1.637578961322106e-15,0.0,430.5394065183696,373.4105234833663,150.95718665890232,13717.082964098694,-407.175015416196,2.7095425640649604,0.0124275844481377,-0.0227273870338053,0.5213794102512183,40.61953029336144,61.12178996783336,-1.343198241521408,177.49910527003493,0.2911177972820893,173.35706449973793,1.0,-9.020562075079396e-17,0.0,455.35706449973793,366.3515887856745,128.16858237933909,3316.164327071807,-17.143484002096557,3.040184792751321,0.0005147413790593,-0.0119320019482526,2.6568590002104147,64.01761141078441,38.25571838302991,-7.985231508649936,-175.83949533055937,2.82136858200814,448.0,-148.4983544944962,169.0,0.7625279269575552,0.7282715021081079,0.0,387,377.7057004127786,191.9502914166505,-5094.0,104.0,-2.9854838422519423,-0.0032254410083552,0.0040355712887416,14.28645826046217,2.1788135622900464,102.32729273109304,-77.41342246437505,-3.7501938495448544,1.209143181779854,182.0,0.6487483950689199,-0.0512473072052181,0.0,495,367.4190479677543,89.72915720885818,-7804.0,-51.0,-2.901103250957056,0.0015405559557734,-0.0205451778722737,4.185424464207969,102.11567026895204,1.5350348078336646,175.0473070904002,99.78808659044788,1.748950610935619,12937
10021698834789871149_5,1,324.0,1.0,-0.0107590920610345,0.0,275.0,311.30702456519714,277.21848152457886,-23698.0,85.0,-2.333151771495869,-0.0026300197039847,-0.021728094930063,1.9414283734722293,107.11737088500496,195.88559702624636,37.07042626010704,17.3130699116063,0.2447153389801568,298.0,259.0,291.0,0.0,0.0113371080573557,0.9970327209554068,306.0,333.4984638642102,255.55506919302596,-22805.0,119.0,-2.3718000998148105,-0.003658268742445,-0.0204584957895482,2.3001868624987987,76.62005162174633,169.30408940261717,33.60378859730682,12.37899060147206,0.6980597630846319,391.0,1311.0,323.0,0.968686050772925,0.017792076739612,0.0456497538988081,280.0,314.9460759020409,273.78595943459186,-23692.0,84.0,-2.3333757026931745,-0.0025774025720866,-0.0216014787882256,1.9282818603831549,102.1915494923523,191.5503666044721,36.59027566785974,16.572373474177372,0.2367182004418105,293.0,146.0,193.0,0.0327395106370351,0.6953132745351813,0.3715902042639784,369.0,373.516471309766,206.3114821210283,-13325.0,-416.0,-2.7227478648012537,0.01269842708659,0.0022214512614386,9.695327978844334,14.93433987100051,116.40187538122224,6.115262860704967,-4.046320627407823,0.5536711622885125,418.0,1008.0,249.0,0.0,-0.0032316211204067,0.995192748859149,335.0,353.4684110240776,234.4769625880137,-21748.0,55.0,-2.415844646421801,-0.0017052987042595,0.0115059057086267,3.480920418532729,48.31011058747223,145.3019389145192,27.37042097113656,6.253311496798497,1.4121486436963455,391.0,924.0,150.0,1.0,-1.1136924715771102e-15,0.0,439.2498475819789,377.86111950790246,140.1128675005045,11460.695891602503,-377.5167659823228,2.784165688814276,0.0115254542544709,-0.0081284442969545,6.724612877646386,51.45728381522197,50.90250816884953,4.442868515563739,171.78517981969395,6.255927696422977,147.0,1.0,6.453171330633722e-16,0.0,515.8047634123328,375.0850242709092,70.9242729904809,-13192.47195772882,-143.60952682466564,-2.7271965242200933,0.0043835315981497,-0.0133161973613737,2.6108693964596434,120.59576867889808,20.04414490791766,179.14568886355036,-162.74119430414916,0.8850819465952804,506.0,-231.31432189598763,178.0,0.490368701636627,0.9916245847365744,0.0127197661372953,386,378.760861264904,192.78887873037456,-8089.0,69.0,-2.8921236379744264,-0.0021475622476625,0.0006847455493076,13.152702540182098,3.434266675976481,103.25792668777268,-67.81002029573126,-4.974498008051939,2.391205491233459,147.0,0.8260341909648747,-0.2046326427304656,0.0,496,371.3574116274,89.70218808360644,-1972.0,22.0,-3.0813727033534173,-0.0006838780707538,-0.0129688042508115,0.3501260744509744,101.9039208745926,2.4456122232239936,178.26996055923777,-96.35531877227976,2.120902840630936,13525
10021698834789871149_6,1,229.0,0.0,0.1348410157479923,0.0,311.0,338.88942272754025,253.9437603827332,-19442.0,113.0,-2.506283795261735,-0.0034781716406565,-0.031651041696139,0.2782926353305393,72.40383593348176,166.67331175474274,30.771358834322303,10.716531045582114,1.864850599693613,320.0,145.0,150.0,0.0,0.1494765913398665,0.656537753222836,364.0,364.998250831337,204.93090564594303,-7523.0,-622.0,-2.909904764063012,0.0189644040104214,0.0103654007977955,16.67439712228313,17.07750255572534,114.9981379158895,33.52000479820083,-2.7671461709409524,7.912210261788729,366.0,46.0,308.0,0.951219193220247,0.0133522276630524,0.0,86.0,170.62248881448113,403.60221484274985,-23843.0,-167.0,-2.326687367981436,0.0050869482888598,0.0179821026422893,7.870124548209125,294.92841904295074,371.0420705888659,43.61842076995956,31.90606245157669,5.68551746417389,103.0,200.0,12.0,0.7727473974227905,-0.0725046437113515,0.0,660.0,472.01957554971017,-32.18882185412991,-25288.0,-192.0,-2.2599809554315384,0.0058770102839316,-0.0166313531057488,3.017979129717584,243.61385466027664,159.86734742629494,-157.11216515030983,-140.28099613456655,4.902379027973843,677.0,1674.0,119.0,0.0,-0.0089482374458843,0.0,452.0,363.8468438977393,131.77241541069245,5686.0,-147.0,2.9671633889741984,0.0045049499685519,-0.0281605728745251,5.559504873552033,60.88585023702351,42.08055566652377,-9.620303147240792,-171.58102866209595,5.864052639262369,551.0,3621.0,53.441485167159385,0.0,8.729128531115293e-15,0.0,547.1861716109469,395.5290948258108,48.60863336779635,-27439.736941450967,-392.8458411553341,-2.147638540721373,0.0120007728436955,-0.0036599513527759,3.833270646994434,144.29751418550302,49.20120502357501,-172.87173903436866,-148.09672082791846,10.260984606009536,53.441485167159385,0.0,8.729128531115293e-15,0.0,547.1861716109469,395.5290948258108,48.60863336779635,-27439.736941450967,-392.8458411553341,-2.147638540721373,0.0120007728436955,-0.0036599513527759,3.833270646994434,144.29751418550302,49.20120502357501,-172.87173903436866,-148.09672082791846,10.260984606009536,540.0,-311.5426398787058,141.0,0.0,0.0909651147003171,0.0,388,367.7353796375357,190.43649260750368,-3587.0,-78.0,-3.0318772724030905,0.0023579632975213,-0.0132904281885666,23.154217886182558,7.909051680116184,100.443596934337,96.62102252445992,-0.5642510957195975,8.87394506275674,104.0,0.0,-0.1343389370924104,0.0,495,364.65632944521695,89.05802674915478,-9253.0,-287.0,-2.855285647122757,0.0087390668366266,-0.0250462614728704,7.028129670207224,103.04057086647356,4.376251091531152,172.14347021612528,100.65342453299634,4.5869648866000565,39985
10021698834789871149_7,1,324.0,1.0,0.0060666922048707,0.0,255.0,296.3262492135245,290.5030305621116,-24232.0,18.0,-2.309200715667453,-0.0005708027960316,-0.0217397206816402,2.571990284808736,126.79672844766176,213.2434521687728,38.72231409844604,19.948287068556454,0.881639251296151,298.0,509.0,236.0,0.0,0.0173464613827698,0.983822402838392,316.0,340.39747836305537,248.2994810713488,-23118.0,107.0,-2.358424439838791,-0.003284879113615,-0.0096320754855674,2.7251637865037006,66.79168592718058,160.85033571124748,32.04122455558167,10.482698557787645,1.145951446484841,354.0,689.0,324.0,0.9795745469262708,0.0083785099112215,0.0083063100782595,256.0,297.0644218688807,289.827086518732,-24221.0,24.0,-2.3096935153522677,-0.0007596916439415,-0.0218969933880217,2.549361323732568,125.80781244690556,212.3570715250255,38.66647673839177,19.83732751880937,0.8660934017814572,269.0,146.0,185.0,0.0200516011261701,0.4107491012163265,0.3067368608318234,345.0,359.804387731802,226.6342152270771,-17759.0,-233.0,-2.568711525486504,0.0071083975866873,0.0060641919872587,4.700294174438703,38.49198449853039,136.93861971696924,23.426876574821488,3.06934824185328,1.535723211521275,366.0,444.0,241.0,0.0,0.0065764831360399,0.9861481785774232,313.0,338.2722688332582,250.41812084882687,-23167.0,81.0,-2.356306921213101,-0.002514654245132,-0.0116876870907174,2.684661851991661,69.71532964098539,163.32137023966283,32.54426584028183,11.019739630303471,1.102844792332439,346.0,571.0,194.0,1.0,-5.143455106271233e-16,0.0,432.2032384079915,373.8166345053684,148.65407778913243,7699.429926967395,-302.71412557517334,2.904345443249817,0.009228923540525,-0.0019916982802768,0.5744475598610373,42.900933661799606,58.85735638144361,-0.0893131688800273,177.48903342274428,0.5512351671541966,235.0,1.0,0.0004151277886764,0.0,593.0,417.9169301175418,7.734253880525187,-26570.0,-31.0,-2.1959410483889603,0.000952778722047,-0.0194452813394912,9.135869902600692,188.60035895135456,95.74639579083284,-167.091453385156,-149.2942438637218,0.5837236491746174,540.0,-843.0,186.0,1.0,0.2004290002244646,0.0,388,374.4844901109881,191.02227019088107,-5593.0,260.0,-2.97006749665976,-0.0079909664089396,0.0203258299321877,17.489508157592788,1.1937638888867406,101.17485574446076,117.25042796802076,-0.4855407579862211,2.121328463441842,219.0,1.0,-0.1629687599847128,0.0,495,368.9185386667288,90.0920534313398,-4679.0,93.0,-2.9983012867691823,-0.0028721378319236,-0.0070510912719305,2.6428214945749766,101.64481013858924,0.0927641977369824,177.3866451897551,8.235888285613935,0.2088352282985341,12363
10021698834789871149_8,1,322.0,0.9593651903723508,-0.0085941799114578,0.0,237.0,283.11393035277786,302.7091681046316,-23905.0,-58.0,-2.3239231797484754,0.0017879888532055,-0.0245102422483738,2.788989106820424,144.6076702590434,229.3678007163632,39.60494840810772,21.832262695391915,1.0814104559826967,260.0,262.0,235.0,0.0,0.0731862511061979,0.9978695245916972,294.0,325.3988542385444,264.4499250400566,-23704.0,-95.0,-2.332827217564612,0.0028768388810985,-0.0273556210892553,1.4768518860109916,88.52154367280079,179.79915738897793,34.29550249768814,13.78147188322954,0.1724291942017389,334.0,747.0,322.0,0.9192572935767797,-0.0104289068621785,0.0039967640213992,238.0,283.84277188508406,302.0263502170729,-23912.0,-57.0,-2.323590005377065,0.0017472471879876,-0.0243219922580148,2.790503818682045,143.61670804486718,228.46227166570105,39.55797617028669,21.729258733561657,1.0775634836266414,251.0,145.0,156.0,0.1102813460977785,0.1012003218690662,0.0,339.0,356.0781375349979,231.41658336868704,-19362.0,-119.0,-2.509391805947587,0.0036125307960371,0.0100795834983456,3.856602866001049,44.40439010971652,141.99936767638138,25.685564989439783,4.840606161688218,1.4505229775495811,398.0,1085.0,201.0,0.0,0.0081906672540783,0.9803930960669376,312.0,338.1728068005078,251.7571564584001,-22560.0,37.0,-2.382183483668736,-0.0011384482093713,-0.0141562030609839,1.7917063635810282,70.90264841814327,164.65534488445317,31.92690327183915,10.859912884251626,0.2077325052359673,390.0,1547.0,183.0,1.0,-0.0004059136940066,0.0,428.0,374.4519840112767,153.14764703031537,7150.0,-388.0,2.9215664707417046,0.0118304537026295,-0.0105850425307548,0.264435736767206,38.387637182759335,63.38862384439414,1.4372111320344836,178.108599479259,0.3251309787812975,239.0,1.0,-2.3548871186385156e-16,0.0,593.8195016845547,418.3235542703224,6.952561648881375,-25480.93152863743,33.917010107328,-2.2506920548233538,-0.0010605080496463,-0.0208499350720015,9.463341837762687,189.45366194891923,96.62616818862982,-166.8817009746186,-149.18139866921786,0.2878187137163892,541.0,-828.2925252683199,177.0,0.8777600593927912,0.2839711405720553,0.0,388,375.14771219732944,191.1943237339873,-5734.0,173.0,-2.965644492175742,-0.0053157875576356,-0.0224000751609977,16.847710359056844,0.5326740710756286,101.38516213405116,129.28304947455536,-1.787879411596096,1.4390241964224697,215.0,1.0,-0.1306583569073887,0.0,495,369.97340198723685,90.34903636225236,-5800.0,96.0,-2.963633844861467,-0.0029768759636079,-0.0071756289464457,1.5572571438253586,101.32464385222208,1.1002336520685765,177.7819524387858,-70.5557457450794,0.8749075638247843,12716
10021698834789871149_9,1,323.0,1.0,0.0047780156671775,0.0,261.0,301.3893159676424,287.1093981193773,-23762.0,64.0,-2.330265951156616,-0.0019724247259495,-0.0222120516824644,1.5576427840578595,120.99709953601996,208.35992615314,37.96672994872607,19.06864126360053,0.1286170006829383,284.0,260.0,232.0,0.0,0.0687717268645981,0.998528561094305,321.0,344.32072197211966,245.1599643693302,-22104.0,162.0,-2.401158740668943,-0.0049765607812902,-0.0116298132518053,2.2350263006725664,62.07954925525407,157.09943064233343,30.64343712074457,9.432287659185194,0.640432849430984,337.0,261.0,323.0,0.9684367179870604,0.0051576486633469,0.0010929553148647,262.0,302.115224202474,286.4207560221354,-23755.0,67.0,-2.330576697985331,-0.0020705262819925,-0.0220254370942711,1.5604046442613355,120.00811382381492,207.4736794419497,37.90177937406208,18.947926368953503,0.1266158109613769,275.0,145.0,191.0,0.10944382813885,0.2648483166018047,0.0,372.0,372.5074882301124,201.14216993177257,-8529.0,-544.0,-2.8782178427722003,0.0166135665532704,0.0051647899801389,14.039593602164318,10.098731498384913,111.19973183052018,14.003817917687714,-5.493140822520194,1.953265335780348,383.0,146.0,276.0,0.0,0.0092239737014655,1.0,299.0,328.82289118925246,260.7923810484426,-23437.0,-1.0,-2.3446108363306166,3.88014832772e-05,-0.0199260457277237,1.7537503295079493,83.57088909450825,175.43835840931015,34.00984566694205,13.212854650364148,0.1253586011445391,400.0,1569.0,183.0,1.0,5.898059818321144e-17,0.0,421.8590176310827,374.6086411956488,159.3354002207622,8135.777279381378,-234.2950881554134,2.8906268998179705,0.0071414463167767,-0.0051578031787422,2.4126749300001245,32.198004600224714,69.5675653843445,-0.0603572334504767,176.9675805963207,0.601378100499536,244.0,1.0,1.723881454251952e-16,0.0,603.19465089253,426.4326229542555,2.02134276215323,-25764.08766874313,-28.309065173010595,-2.2368465283526096,0.0008646478955621,-0.0211992127274912,7.957641208765508,196.2050536230595,105.10380957742808,-165.03855558910467,-146.89466202393842,1.996753658037825,555.0,-733.9197633879503,189.0,1.0,0.3280395356268045,0.0,387,374.89402408615,191.57651907002008,-4283.0,170.0,-3.0104866881897,-0.005212040720145,-0.004240816670623,17.10959289818259,0.6784186609471268,101.75145605681683,87.40937371864847,-1.087260861369322,1.6254552084712968,219.0,1.0,-0.0913506614800431,0.0,495,369.8530885299834,90.31968562437756,-6378.0,117.0,-2.9456859104114006,-0.003578440240114,-0.0109630993286166,1.6810803831814285,101.36066449492164,0.9768783612203434,177.8176397164317,-69.84698464589931,0.7512930677565848,12214
10026327794948344874_1,1,292.0,0.021709271165267,-0.0157948597465632,0.0,273.0,310.0914187284929,278.8395179854357,-23201.0,19.0,-2.354817537311116,-0.0006153323587101,-0.0177477723541699,1.599646486293543,109.14356355999266,197.79368594324603,36.91186024656314,17.35290098889209,0.0975007198766305,334.0,817.0,182.0,0.012239323204947,0.2719400674988473,0.9422161131965908,362.0,367.1226940920216,218.36929492996305,-16117.0,-383.0,-2.6272638939885664,0.0116929409769157,0.0087604753589265,5.567102432506898,28.147740849470768,128.38201679153062,16.10266472873522,-0.5546935142127973,0.0791462274462136,369.0,150.0,299.0,0.8770780487805757,-0.0059542939362825,0.0,148.0,191.96455123539693,391.0607128136985,-23619.0,-212.0,-2.336596070334433,0.006468558263755,-0.0304212368301092,2.123540505940446,271.16020351201206,349.2195911691519,42.10400279632329,29.933026747110397,0.2010196039193933,156.0,96.0,289.0,0.0316783660670609,0.0058220895817654,0.0,185.0,191.96455123539693,391.0607128136985,-23619.0,-212.0,-2.336596070334433,0.006468558263755,-0.0304212368301092,2.123540505940446,271.16020351201206,349.2195911691519,42.10400279632329,29.933026747110397,0.2010196039193933,379.0,2745.0,257.0,0.0,0.004898488007971,0.656911478629111,318.0,340.8146027643446,248.7303592626137,-22725.0,205.0,-2.3751734112438925,-0.0062858528543364,-0.0125705670609852,2.125457477763379,66.94084900629852,161.2011244171613,31.795157964029787,10.561282772223672,0.5462447878954024,398.0,1364.0,176.0,0.4585719846357014,-8.81239525796218e-16,0.0,431.2972425977508,374.67468144554056,148.0479557246628,11539.186946507782,-500.1634202517324,2.7816215311323598,0.0152649197152156,-0.0063408002132586,1.575320720283356,43.48039692244269,58.33157969782568,1.3032318677493082,176.83064641093213,1.5114406104805,178.0,1.0,-1.7763568394002505e-15,0.0,460.57037180313824,369.1850807718442,124.36845806078824,-172.0,-45.0,-3.0278195625455577,0.0013887000219538,0.008052991086117,0.4740821894687526,67.453409671268,34.36940464535755,159.906889358057,-15.08678600883886,0.5004505088013204,453.0,-145.83706425962646,180.0,1.0,0.3287357870197539,0.0,384,377.30306305517206,195.32286379852587,-7402.0,-120.0,-2.9137146535301675,0.0036657743314432,0.0088900968791611,13.7708836784765,4.180058295160245,105.6551646804297,-25.42308141625485,-5.474186206877795,1.4175877922972997,196.0,1.0,-0.1936530077222119,0.0,494,369.33785930765583,93.17111458425109,-4253.0,113.0,-3.0114443981249823,-0.0034816690146994,-0.0063560941081804,1.601449053900201,98.54514774131933,3.197235825098195,177.89607160628233,-5.807015338435986,0.7018374585059464,12874
10026327794948344874_2,1,322.0,0.8027841635457404,-0.0021180459968919,0.0,260.0,267.58485483937886,318.24529624979897,-23672.0,-128.0,-2.3342910238441625,0.0039129472830908,-0.0232731336702245,2.2626834056064697,166.4942813929422,249.73336522736776,40.12494522345702,23.632300233474997,0.4112723330258832,318.0,718.0,164.0,0.0200174935715539,0.1532997158357075,0.884959955051967,365.0,368.6915751046317,207.1003929931641,-13659.0,-425.0,-2.711557716587612,0.0129818831580025,0.0107514104647295,12.536478542594631,17.032103118776774,117.10063571810448,22.0369351451562,-1.6655258902613337,3.6808300881222697,401.0,613.0,322.0,0.9383308580743576,-0.0014757667162461,0.0,257.0,267.58485483937886,318.24529624979897,-23672.0,-128.0,-2.3342910238441625,0.0039129472830908,-0.0232731336702245,2.2626834056064697,166.4942813929422,249.73336522736776,40.12494522345702,23.632300233474997,0.4112723330258832,279.0,248.0,162.0,0.0402549443074635,0.1640059030566896,0.7018970086233955,366.0,369.14566081891735,206.13194299316407,-13311.0,-441.0,-2.72320414515904,0.0134574411937168,0.0103853952756949,12.905583433356991,15.962776601677303,116.13214323759088,21.834355506438328,-2.00394340705665,3.609715054432967,401.0,589.0,321.0,0.3097557812000376,0.0076734961894992,0.0880680980742336,266.0,267.58485483937886,318.24529624979897,-23672.0,-128.0,-2.3342910238441625,0.0039129472830908,-0.0232731336702245,2.2626834056064697,166.4942813929422,249.73336522736776,40.12494522345702,23.632300233474997,0.4112723330258832,388.0,1894.0,154.0,1.0,0.0024584698811054,0.0,430.0,372.778227966758,151.6975930842965,11468.0,-430.0,2.783965213518733,0.0131298358846196,-0.0167954503427489,1.3566342196260075,39.91914878641116,61.81748822849056,-1.8629558024207384,178.57828321285987,1.051844727876647,185.52538894767457,1.0,3.6082248300317592e-16,0.0,496.52538894767457,369.8445105034602,93.28219339747122,-10431.0,-118.0,-2.8175859716937706,0.0035857997025195,-0.0060486962044087,1.082858297634657,98.4035131559724,3.4072163065092664,176.01630340331138,-16.21744499898769,1.2192357468373172,449.0,-932.457001058142,150.0,0.3999999761581421,0.2402744828501378,0.1300800316193144,396,374.1840980477467,191.50618209712584,-6739.0,163.0,-2.9344447695016576,-0.0049948917970952,0.0246532734690049,17.821074820485318,1.385961225970459,101.64207076909742,91.91547620016716,-1.5774878909915917,2.3371515057556587,182.0,1.0,-0.1093396640603663,0.0,492,369.8445105034602,93.28219339747122,-10431.0,-118.0,-2.8175859716937706,0.0035857997025195,-0.0060486962044087,1.082858297634657,98.4035131559724,3.4072163065092664,176.01630340331138,-16.21744499898769,1.2192357468373172,13031
10042196582271007075_1,1,256.0,0.4286737771562641,0.0015214139039012,0.0,213.0,266.01817614589254,319.4992065207504,-24138.0,-269.0,-2.313446830500372,0.0082130746422794,-0.0249536867908638,2.438196755728042,168.4652349027992,251.51685685582368,39.92523142341015,23.51388221741384,0.5690660833392255,331.0,2056.0,126.0,0.0,0.0784322531559459,0.6818131531548937,332.0,347.91863595335127,233.06007528838367,-16440.0,-352.0,-2.615957205108219,0.0107409347640363,0.0117322883034802,8.368640137241465,49.90249362261828,144.59482203944515,32.42270495811893,7.128763804611467,6.47996499838437,343.0,351.0,251.0,0.3191349142183184,0.0020713357809951,0.047480963761884,243.0,284.3865457536504,302.5906277234151,-24038.0,-197.0,-2.317966554814185,0.0060021403237579,-0.0255913715302892,2.009982978382983,143.70570209085315,228.78455072784143,38.91448915186046,21.217273663184223,0.2939587861554054,256.0,188.0,117.0,0.106456015309175,0.0660762470575609,0.4356227958600226,337.0,350.4629419165274,228.5010821882371,-15389.0,-499.0,-2.652631678735544,0.0152459334722612,0.0206585404538038,9.860271383129636,44.699426937986445,139.72681203538266,32.315292280766215,5.737535421747115,7.615319538650383,388.0,1174.0,244.0,0.0,0.009839021327006,0.2545550031248477,257.0,294.6461045336903,293.08524566368646,-23973.0,-126.0,-2.3209029373852137,0.0038520837302313,-0.024257615697909,1.840371058576196,129.86292433045904,216.2445701790672,38.24528714249584,19.790214434447535,0.1582107418951832,329.0,1372.0,136.0,0.7495372814638791,1.0798653637955623e-16,0.0,394.4334513898589,365.4771202175298,187.25772790199616,-5135.115388741451,224.13663891604847,-2.9842266153489163,-0.0068840734504718,0.0033379007900603,23.47245766944177,10.957957599645928,97.31901021682523,115.3871105772608,4.535261450913926,11.596220318296036,189.0,0.4458907495054895,-9.74887464373e-05,0.0,617.0,435.6881932648234,-8.329416410479242,-26120.0,-291.0,-2.2189741281608626,0.0088875152168935,-0.0057463448609446,9.806074503241344,208.6949608955688,118.85003365421876,-163.89601623561933,-146.46477830350932,0.0077428393866688,515.0,-1945.0,135.0,0.7496969278697168,0.0269707700603136,0.0,390,365.0217353247685,189.2834829942636,-5868.0,75.0,-2.9615384898546235,-0.0022906104682788,0.0044694213010224,24.893591147006667,10.782551828842386,99.360377053652,102.6980372465141,2.986535499370594,11.740682585271506,183.0,0.7089443891052838,-0.0833901566777776,0.0,495,370.82940789315376,90.55717488890704,-4849.0,8.0,-2.993048330581709,-0.0002589903109171,-0.0118559166668524,0.6766101539686691,101.07305943369091,1.979442901779015,177.40621901068047,-73.55687724617086,1.7542777633214783,15923
10042196582271007075_2,1,295.0,0.5368319013264783,0.000604502198537,0.0,248.0,291.2575966598641,295.3317518641806,-23940.0,-36.0,-2.322388195074521,0.0010998637927563,-0.0242160629975925,2.534155999539157,133.7373126939662,219.53161632039743,38.99591014284757,20.634348929055477,0.851897355202869,341.0,1322.0,186.0,0.0,0.0672042972581896,0.9735447623932288,343.0,354.9654497394932,228.83393866626176,-18637.0,-221.0,-2.5365388971946903,0.0067705840615354,0.012882923625327,6.48506301839594,42.62572156696738,139.53448028915847,28.22719780948513,5.064363216059636,3.961675321382169,400.0,1172.0,295.0,0.7435135604336218,0.0001736975761689,0.0,241.0,286.14763709564244,300.1024909233182,-23941.0,-66.0,-2.3222903503692063,0.0020191086562629,-0.0251109826842087,2.586802626553086,140.6653243997715,225.82288701593507,39.31471748969757,21.346956694359832,0.8933508010999206,281.0,494.0,127.0,0.0478427847015371,0.1465504844216605,0.52137642319525,380.0,372.44845288583537,194.90844479086908,-9275.0,-10.0,-2.8546144275797625,0.0002875066485905,0.0386285148544846,18.101896783448964,4.607862017931857,104.9674297063078,42.58209410382506,-1.9826585316871603,3.424796389805635,472.0,2467.0,283.0,0.0267083101149421,0.0098043691115258,0.2838882739560494,278.0,313.17579866696127,274.83094600202367,-23817.0,53.0,-2.3278524354868138,-0.0016538777381577,-0.0206802633530743,2.389022442114124,104.08610237025825,193.0570111813813,36.95787080217493,16.91342189174155,0.6945759825375196,403.0,2286.0,124.58517452496552,0.5454635585177074,1.5699247457590104e-16,0.0,443.5851745249655,370.64901703183006,139.51773315054035,9917.0,-330.0,2.8340919628352568,0.010058860489159,-0.0250755973705552,0.1808518051909266,52.23358907180063,49.54756215924094,-3.5000323907310045,179.9176472590755,0.674040743530162,188.5740931803156,0.6935223755603189,1.9168694409543718e-16,0.0,593.5740931803156,418.2371625039368,7.228531206832725,-27037.926422688204,-136.3150249834713,-2.171106696288017,0.004164290370501,-0.0269267395539283,9.310446386076364,189.1654668628697,96.3449732808898,-167.25353201482292,-149.50706682288296,0.4312076125648345,504.0,-1887.907770425996,121.0,0.1001449599862098,0.1374398741149533,0.2730686538608238,388,373.5780112401189,190.9439138392445,-7912.0,423.0,-2.897685334799309,-0.0129579003626435,0.0244009865838012,18.317883455591005,2.0733410987546117,101.05086713963956,109.1636985546403,0.4239464231087903,3.0285602471626274,155.0,0.6919050812721252,-0.1310172519953287,0.0,494,362.8800624972861,89.67274851796802,-3651.0,-2.0,-3.0299499520774016,4.97759244352e-05,-0.0151650987957199,8.633080596263177,102.63378320399228,6.058781834596505,172.86622254399796,93.06482311183662,6.226604568520919,15279
10042196582271007075_3,1,314.0,1.0,-0.0017636383361864,0.0,227.0,276.2574617113386,309.979348891122,-23825.0,-91.0,-2.327500731285129,0.0027739060776574,-0.02400672641483,2.253925179453486,154.5827756276332,238.7029813207732,39.75631564109842,22.62579758707348,0.4935110634505682,344.0,1549.0,199.0,0.0,0.0823599189723055,0.8404926088791317,345.0,359.6412265039833,226.4662816020636,-18864.0,-195.0,-2.5280918371818557,0.005951577546907,0.0153666736897593,4.9344371813112335,38.40622757394086,136.7820431465842,23.91097650744292,3.30165942010594,1.7671897788668145,387.0,842.0,314.0,0.9220522922925528,-0.0020710265247904,0.0800476151768664,233.0,280.605673535963,305.8606070884505,-23850.0,-70.0,-2.326389734434693,0.0021334461240689,-0.0241409015645703,2.2357518941633905,148.63453976898435,233.23161950713327,39.54254223604109,22.08488817105705,0.5096947097571277,295.0,744.0,143.0,0.0427962272976022,0.1319320036702409,0.341732256831831,379.0,375.41140755556256,196.84104947012915,-9973.0,-397.0,-2.8322571339937066,0.0121120043334589,0.0156970179096242,14.568200004439184,5.324411904232668,107.03746304813043,-0.5727377240557322,-5.751134926148835,0.1321201765874358,686.0,6279.0,160.0,0.683482514567264,0.0031094479346694,0.0,487.0,369.57239854911,98.08937324105008,-7742.0,-120.0,-2.903017122118723,0.0036621791451623,-0.000134260450095,0.508273102619647,93.62193321802542,8.114840437674392,175.43900067043097,-5.428486988594321,1.5248652294405654,508.0,456.0,167.36286071062443,0.7886184966228404,7.47665818146004e-16,0.0,527.3628607106244,380.988603478634,61.80022343028675,-9946.0,119.0,-2.8332022979042746,-0.0036434465947777,-0.037421798566074,1.2002396144357654,129.83190000304955,30.66981115749936,-176.92254649703034,-156.162308149976,3.347245387512658,167.36286071062443,0.7886184966228404,7.47665818146004e-16,0.0,527.3628607106244,380.988603478634,61.80022343028675,-9946.0,119.0,-2.8332022979042746,-0.0036434465947777,-0.037421798566074,1.2002396144357654,129.83190000304955,30.66981115749936,-176.92254649703034,-156.162308149976,3.347245387512658,534.0,136.74278578751182,141.0,0.1977569311857223,0.1380712608648102,0.0,387,376.88535840474896,191.8523921764836,-8061.0,111.0,-2.8930302784109507,-0.0034117254611327,0.0121181632428223,15.110989507525009,1.3569517590114173,102.16260333125923,-74.98835496554388,-3.677205999635504,0.3839774562182731,158.0,0.6823022100265989,0.0256031907444938,0.0,495,370.6652867094,90.51818572998047,-11439.0,-202.0,-2.7849507727521527,0.0061653663756999,-0.0051937463265308,0.8452194540818709,101.11983334474978,1.811004255813727,176.20816192069654,-74.38516677814305,1.5858399525300613,14442
10148938848326584477_1,1,320.0,0.4970920764830003,-0.0006795446999477,0.0,246.0,286.2833754635008,300.24352839099765,-23781.0,-30.0,-2.329455430605628,0.0009141640755871,-0.0247077540300473,2.3910606177923253,140.68803927472524,225.9044173485178,39.32120337259987,21.38748523586388,0.6976130919539647,312.0,800.0,260.0,0.0,0.0350004111254389,0.7383584786877798,314.0,339.20555242618366,249.94446782143956,-23212.0,167.0,-2.3543431917900106,-0.0051263942159603,-0.0153629867192522,2.3751897962974025,68.81793616131554,162.68305249856868,32.310653180107884,10.940084721516094,0.7949169169903336,369.0,927.0,320.0,0.9794273364090637,-0.0010275577592323,0.0,238.0,284.11064583124033,302.3046862512239,-23775.0,-50.0,-2.329707081813212,0.0015414511346959,-0.0247627064314968,2.405512418414239,143.6602998156458,228.6210896786124,39.42095211355188,21.657058371792328,0.6912811579681338,256.0,203.0,184.0,0.0394745327266361,0.1631140610525935,0.0,370.0,372.9928627485611,204.3401861232228,-11656.0,-481.0,-2.7778304819512782,0.0146789480131608,0.0068707839231469,11.457558211464752,13.077631667051715,114.41234643344602,9.002308482684702,-4.398085332409119,0.5767905488837418,428.0,1132.0,176.0,0.3999999761581421,0.0085493653018963,0.0510414085931286,457.0,371.5252226142218,125.62927096260611,7857.0,-123.0,2.8994016901041024,0.0037498656477799,-0.0128409196495299,2.7216042583615736,66.01376081334627,35.723663442376335,-2.6159294750592843,176.73083694184172,2.658869256952026,558.0,2299.0,8.0,0.0,1.0,0.0,571.0,405.5639322806731,31.25240966659164,-32554.0,-666.0,-1.460465510855272,0.0203258662038519,0.0019742601475388,0.3114098488517362,163.04912128176022,69.23383828971869,-170.57171626467482,-149.22509466670704,7.6211573861945086,37.747908630193024,0.0,-1.249000902703301e-16,0.0,575.5747908630193,409.6610574477597,25.304876134869808,-32706.267261931716,-979.736422357868,-1.6215731654951668,0.0299060156236888,-0.0297976250230841,1.6209771279757152,169.67868684409427,76.4562971991496,-170.12561914035615,-149.5292540663284,6.843402167573254,571.0,-18197.696762697946,182.0,0.5324430235637728,0.1942651550856961,0.0,384,376.6627301065727,193.6711241470168,-7848.0,-21.0,-2.8997223130740624,0.0006227563305816,0.0114929596721025,15.009428833610738,2.413648157868749,103.9591126203339,-27.072265381622252,-4.419052338860719,0.4808127500496949,173.0,1.0,0.0505266703008863,0.0,495,367.9348311973168,89.85439821050338,-11083.0,-194.0,-2.796510623731371,0.0059163475882068,-0.0113841968832749,3.654720342381741,101.95090514390928,1.0057638027581732,174.70224179306422,97.32098956145308,1.2191199003965725,43365
10148938848326584477_2,1,315.0,0.2740976366069581,-0.0012751428628754,0.0,234.0,281.3231183132596,305.1661339518229,-23923.0,-98.0,-2.323131978670756,0.0029796532524956,-0.0245164287719461,2.243995317241284,147.6419512304617,232.31752176417592,39.4340029900887,21.91944092708317,0.5229894973118753,332.0,1302.0,202.0,0.0,0.1028934051045269,0.9699601492367392,334.0,350.1493713460097,239.6760323222864,-21996.0,157.0,-2.405663472178136,-0.0048066441862932,-0.0045440743398107,2.077934953262698,54.45464280714557,150.8496823476311,28.237157590659432,7.560773244510467,0.3307263515953714,351.0,324.0,316.0,0.9441527443244376,-0.0025023106653057,0.0,226.0,275.49952718415085,310.6322351589054,-23893.0,-94.0,-2.32448890105998,0.0028640336387033,-0.0248422740281587,2.304690813248158,155.57012026609834,239.59932479413973,39.80917727366244,22.72564260466416,0.5374583491871718,243.0,194.0,141.0,0.0933415502027664,0.1823901604614153,0.0,413.0,380.1026263728805,166.13508273715337,5418.0,-385.0,2.9754238885376783,0.0117418197594772,0.0075636166656008,0.3651601203396472,25.785421412945247,76.95049319829712,14.188772614109284,175.71615294198483,3.71901027084093,418.0,141.0,258.0,0.0,0.0097566568167845,0.7731255604715292,302.0,330.9129131822253,258.6377121207193,-23680.0,9.0,-2.333934195442572,-0.0003073187885392,-0.0192721411744684,1.864537936881378,80.61747279463837,172.8698262838857,33.659378656102,12.725959200828031,0.2482010573840649,387.0,1522.0,146.0,1.0,0.001859451788794,0.0,421.0,378.38627278020334,157.00287857796383,8266.0,-152.0,2.886546335174042,0.0046405434415564,-0.0149870294260771,1.9800497534866224,34.63082485868997,67.66688135733003,5.718068892502125,173.02023788924308,3.518385879193138,204.0,1.0,-9.298117831235686e-16,0.0,555.6246640567421,384.68237056722046,46.81782879781293,-16040.0,122.0,-2.630035015856783,-0.0037800638332559,-0.012532600878767,5.928387946199451,144.98780722750104,45.96560766727693,-175.96084762691214,-159.5228165625173,0.0788843512452375,540.0,-282.2439530213578,167.0,0.0,0.2284950101233727,0.0136169775073675,387,378.01459478586094,194.7918109339076,-8582.0,-147.0,-2.876556803756232,0.00448657107267,0.01101192588145,13.352916518688405,4.085013473192386,105.184853953557,-37.73885651197472,-5.936005227746024,2.0156100731740376,173.0,1.0,0.0366576647129882,0.0,500,370.5970553786971,85.51386279839117,-10122.0,-142.0,-2.827540307775341,0.004344749506793,-0.0149302378988723,2.0995825528188217,106.1217192253238,4.785864668719922,176.5103514325281,-160.41859872113892,0.518173681992846,13422
102186880819172716_1,0,323.0,1.0,0.0023178302049832,0.0,271.0,308.0453621550929,279.5985982581024,-23900.0,73.0,-2.324166556831216,-0.0022717988012444,-0.019667598268889,2.453171526240597,110.98464914299888,199.1345464427074,37.64993157922717,17.978068120484203,0.7569772934275693,285.0,157.0,204.0,0.0125494398651286,0.125933798484479,0.9501018699708909,349.0,362.4100059197591,223.57084632110156,-17386.0,-252.0,-2.582225156276317,0.0076880954612898,0.011889701674005,5.095352263609758,34.648323145333954,133.72988188786266,21.4918865101492,1.9641499174638308,1.2290108679138652,369.0,397.0,323.0,0.8090487702931336,0.0076489870067408,0.294193513034639,277.0,312.4247260245106,275.4935803495043,-23868.0,72.0,-2.325579376262406,-0.0022111328091793,-0.0199120948919744,2.4248688508363063,105.06691092020824,193.909036246182,37.114429702743365,17.114683854318535,0.7295437733215833,285.0,90.0,180.0,0.1810101127089697,0.3981630127145503,0.0,369.0,372.13010204845966,204.8894896079412,-9565.0,-575.0,-2.8453081389513684,0.017559579652292,0.0027033642344327,11.681123474116244,13.805900560016882,114.93404837337708,10.987699756142693,-5.035685104816202,1.222059018727943,399.0,439.0,280.0,0.0,0.006919439654882,1.0,303.0,331.3414373262696,257.6415377445527,-23807.0,37.0,-2.328305089375222,-0.0011708612103665,-0.0172441786875432,2.288083280811524,79.55096324975513,171.80391503465583,33.8671307174676,12.72687868395972,0.6748404918611026,361.0,928.0,169.0,1.0,-0.0014455769556079,0.0,421.0,373.9834584738656,160.4840032456779,10062.0,-193.0,2.829430116863376,0.0059086807869663,-0.0035114329087348,3.443564197226641,31.07552312600597,70.66492875595233,-1.8276126700244284,176.997968561124,1.4113244196808867,245.8385859388884,1.0,-8.326672684688674e-17,0.0,613.8385859388884,434.97591748812033,-4.360564441875189,-25698.192929694444,-144.2913124888928,-2.240045198437529,0.0043907210684701,-0.0144499891381876,7.266331868628399,204.6897910034848,115.178080728194,-163.45040640916622,-145.33248334163392,2.620143776716205,471.0,-2264.740203144438,174.0,0.1000000238418579,0.2066721811847887,0.1962652486238886,387,375.5605774618332,191.76330322312603,-3679.0,48.0,-3.02905900527849,-0.0015046083743005,-0.0346219816569405,16.43854151199139,0.2444848646752372,101.97908825028424,2.956244787607269,-2.980446598184853,0.9370598242156176,209.0,1.0,-0.0994154447179299,0.0,495,369.2520290019457,90.17513387358,-7486.0,80.0,-2.9110941853889383,-0.0024517133589753,-0.0125127027800971,2.299219916828487,101.54061236265024,0.3665713460832204,177.04496252904025,-60.84838641470605,0.1341116145176857,12420
